{"_embedded":{"addresses":[{"purpose":"industriefunctie","postcode":"2311AA","surface":76,"municipality":{"id":"0546","label":"Leiden"},"city":{"id":"2088","label":"Leiden"},"letter":"E","geo":{"center":{"rd":{"type":"Point","coordinates":[92847.886,463879.702],"crs":{"type":"name","properties":{"name":"urn:ogc:def:crs:EPSG::28992"}}},"wgs84":{"type":"Point","coordinates":[4.4788946,52.1595835],"crs":{"type":"name","properties":{"name":"urn:ogc:def:crs:OGC:1.3:CRS84"}}}}},"nen5825":{"postcode":"2311 AA","street":"HAAGWEG"},"addition":"8","number":4,"year":1883,"province":{"id":"28","label":"Zuid-Holland"},"id":"0546200000061879","type":"Verblijfsobject","street":"Haagweg","_links":{"self":{"href":"https://api.postcodeapi.nu/v2/addresses/0546200000061879/"}}},{"purpose":"industriefunctie","postcode":"2311AA","surface":33,"municipality":{"id":"0546","label":"Leiden"},"city":{"id":"2088","label":"Leiden"},"letter":"C","geo":{"center":{"rd":{"type":"Point","coordinates":[92869.545,463883.231],"crs":{"type":"name","properties":{"name":"urn:ogc:def:crs:EPSG::28992"}}},"wgs84":{"type":"Point","coordinates":[4.4792105,52.1596176],"crs":{"type":"name","properties":{"name":"urn:ogc:def:crs:OGC:1.3:CRS84"}}}}},"nen5825":{"postcode":"2311 AA","street":"HAAGWEG"},"addition":"11","number":4,"year":1883,"province":{"id":"28","label":"Zuid-Holland"},"id":"0546200000061836","type":"Verblijfsobject","street":"Haagweg","_links":{"self":{"href":"https://api.postcodeapi.nu/v2/addresses/0546200000061836/"}}},{"purpose":"industriefunctie","postcode":"2311AA","surface":37,"municipality":{"id":"0546","label":"Leiden"},"city":{"id":"2088","label":"Leiden"},"letter":"D","geo":{"center":{"rd":{"type":"Point","coordinates":[92848.643,463881.873],"crs":{"type":"name","properties":{"name":"urn:ogc:def:crs:EPSG::28992"}}},"wgs84":{"type":"Point","coordinates":[4.4789053,52.159603],"crs":{"type":"name","properties":{"name":"urn:ogc:def:crs:OGC:1.3:CRS84"}}}}},"nen5825":{"postcode":"2311 AA","street":"HAAGWEG"},"addition":"7","number":4,"year":1883,"province":{"id":"28","label":"Zuid-Holland"},"id":"0546200000061847","type":"Verblijfsobject","street":"Haagweg","_links":{"self":{"href":"https://api.postcodeapi.nu/v2/addresses/0546200000061847/"}}},{"purpose":"industriefunctie","postcode":"2311AA","surface":38,"municipality":{"id":"0546","label":"Leiden"},"city":{"id":"2088","label":"Leiden"},"letter":"G","geo":{"center":{"rd":{"type":"Point","coordinates":[92854.71,463876.159],"crs":{"type":"name","properties":{"name":"urn:ogc:def:crs:EPSG::28992"}}},"wgs84":{"type":"Point","coordinates":[4.478995,52.1595524],"crs":{"type":"name","properties":{"name":"urn:ogc:def:crs:OGC:1.3:CRS84"}}}}},"nen5825":{"postcode":"2311 AA","street":"HAAGWEG"},"addition":"3","number":4,"year":1883,"province":{"id":"28","label":"Zuid-Holland"},"id":"0546200000061904","type":"Verblijfsobject","street":"Haagweg","_links":{"self":{"href":"https://api.postcodeapi.nu/v2/addresses/0546200000061904/"}}},{"purpose":"industriefunctie","postcode":"2311AA","surface":65,"municipality":{"id":"0546","label":"Leiden"},"city":{"id":"2088","label":"Leiden"},"letter":"B","geo":{"center":{"rd":{"type":"Point","coordinates":[92881.556,463888.498],"crs":{"type":"name","properties":{"name":"urn:ogc:def:crs:EPSG::28992"}}},"wgs84":{"type":"Point","coordinates":[4.479385,52.1596663],"crs":{"type":"name","properties":{"name":"urn:ogc:def:crs:OGC:1.3:CRS84"}}}}},"nen5825":{"postcode":"2311 AA","street":"HAAGWEG"},"addition":"2","number":4,"year":1883,"province":{"id":"28","label":"Zuid-Holland"},"id":"0546200000061828","type":"Verblijfsobject","street":"Haagweg","_links":{"self":{"href":"https://api.postcodeapi.nu/v2/addresses/0546200000061828/"}}},{"purpose":"industriefunctie","postcode":"2311AA","surface":30,"municipality":{"id":"0546","label":"Leiden"},"city":{"id":"2088","label":"Leiden"},"letter":"B","geo":{"center":{"rd":{"type":"Point","coordinates":[92880.282,463888.284],"crs":{"type":"name","properties":{"name":"urn:ogc:def:crs:EPSG::28992"}}},"wgs84":{"type":"Point","coordinates":[4.4793664,52.1596642],"crs":{"type":"name","properties":{"name":"urn:ogc:def:crs:OGC:1.3:CRS84"}}}}},"nen5825":{"postcode":"2311 AA","street":"HAAGWEG"},"addition":"3","number":4,"year":1883,"province":{"id":"28","label":"Zuid-Holland"},"id":"0546200000061830","type":"Verblijfsobject","street":"Haagweg","_links":{"self":{"href":"https://api.postcodeapi.nu/v2/addresses/0546200000061830/"}}},{"purpose":"industriefunctie","postcode":"2311AA","surface":28,"municipality":{"id":"0546","label":"Leiden"},"city":{"id":"2088","label":"Leiden"},"letter":"H","geo":{"center":{"rd":{"type":"Point","coordinates":[92851.306,463873.658],"crs":{"type":"name","properties":{"name":"urn:ogc:def:crs:EPSG::28992"}}},"wgs84":{"type":"Point","coordinates":[4.4789457,52.1595295],"crs":{"type":"name","properties":{"name":"urn:ogc:def:crs:OGC:1.3:CRS84"}}}}},"nen5825":{"postcode":"2311 AA","street":"HAAGWEG"},"addition":"6","number":4,"year":1883,"province":{"id":"28","label":"Zuid-Holland"},"id":"0546200000061911","type":"Verblijfsobject","street":"Haagweg","_links":{"self":{"href":"https://api.postcodeapi.nu/v2/addresses/0546200000061911/"}}},{"purpose":"industriefunctie","postcode":"2311AA","surface":28,"municipality":{"id":"0546","label":"Leiden"},"city":{"id":"2088","label":"Leiden"},"letter":"H","geo":{"center":{"rd":{"type":"Point","coordinates":[92852.579,463873.97],"crs":{"type":"name","properties":{"name":"urn:ogc:def:crs:EPSG::28992"}}},"wgs84":{"type":"Point","coordinates":[4.4789642,52.1595325],"crs":{"type":"name","properties":{"name":"urn:ogc:def:crs:OGC:1.3:CRS84"}}}}},"nen5825":{"postcode":"2311 AA","street":"HAAGWEG"},"addition":"5","number":4,"year":1883,"province":{"id":"28","label":"Zuid-Holland"},"id":"0546200000061914","type":"Verblijfsobject","street":"Haagweg","_links":{"self":{"href":"https://api.postcodeapi.nu/v2/addresses/0546200000061914/"}}},{"purpose":"industriefunctie","postcode":"2311AA","surface":42,"municipality":{"id":"0546","label":"Leiden"},"city":{"id":"2088","label":"Leiden"},"letter":"G","geo":{"center":{"rd":{"type":"Point","coordinates":[92851.184,463875.424],"crs":{"type":"name","properties":{"name":"urn:ogc:def:crs:EPSG::28992"}}},"wgs84":{"type":"Point","coordinates":[4.4789436,52.1595454],"crs":{"type":"name","properties":{"name":"urn:ogc:def:crs:OGC:1.3:CRS84"}}}}},"nen5825":{"postcode":"2311 AA","street":"HAAGWEG"},"addition":"6","number":4,"year":1883,"province":{"id":"28","label":"Zuid-Holland"},"id":"0546200000061907","type":"Verblijfsobject","street":"Haagweg","_links":{"self":{"href":"https://api.postcodeapi.nu/v2/addresses/0546200000061907/"}}},{"purpose":"industriefunctie","postcode":"2311AA","surface":40,"municipality":{"id":"0546","label":"Leiden"},"city":{"id":"2088","label":"Leiden"},"letter":"D","geo":{"center":{"rd":{"type":"Point","coordinates":[92837.673,463879.566],"crs":{"type":"name","properties":{"name":"urn:ogc:def:crs:EPSG::28992"}}},"wgs84":{"type":"Point","coordinates":[4.4787454,52.1595811],"crs":{"type":"name","properties":{"name":"urn:ogc:def:crs:OGC:1.3:CRS84"}}}}},"nen5825":{"postcode":"2311 AA","street":"HAAGWEG"},"addition":"16","number":4,"year":1883,"province":{"id":"28","label":"Zuid-Holland"},"id":"0546200000061856","type":"Verblijfsobject","street":"Haagweg","_links":{"self":{"href":"https://api.postcodeapi.nu/v2/addresses/0546200000061856/"}}},{"purpose":"industriefunctie","postcode":"2311AA","surface":37,"municipality":{"id":"0546","label":"Leiden"},"city":{"id":"2088","label":"Leiden"},"letter":"D","geo":{"center":{"rd":{"type":"Point","coordinates":[92847.467,463881.661],"crs":{"type":"name","properties":{"name":"urn:ogc:def:crs:EPSG::28992"}}},"wgs84":{"type":"Point","coordinates":[4.4788881,52.159601],"crs":{"type":"name","properties":{"name":"urn:ogc:def:crs:OGC:1.3:CRS84"}}}}},"nen5825":{"postcode":"2311 AA","street":"HAAGWEG"},"addition":"8","number":4,"year":1883,"province":{"id":"28","label":"Zuid-Holland"},"id":"0546200000061850","type":"Verblijfsobject","street":"Haagweg","_links":{"self":{"href":"https://api.postcodeapi.nu/v2/addresses/0546200000061850/"}}},{"purpose":"industriefunctie","postcode":"2311AA","surface":43,"municipality":{"id":"0546","label":"Leiden"},"city":{"id":"2088","label":"Leiden"},"letter":"E","geo":{"center":{"rd":{"type":"Point","coordinates":[92840.249,463877.931],"crs":{"type":"name","properties":{"name":"urn:ogc:def:crs:EPSG::28992"}}},"wgs84":{"type":"Point","coordinates":[4.4787833,52.1595667],"crs":{"type":"name","properties":{"name":"urn:ogc:def:crs:OGC:1.3:CRS84"}}}}},"nen5825":{"postcode":"2311 AA","street":"HAAGWEG"},"addition":"14","number":4,"year":1883,"province":{"id":"28","label":"Zuid-Holland"},"id":"0546200000061871","type":"Verblijfsobject","street":"Haagweg","_links":{"self":{"href":"https://api.postcodeapi.nu/v2/addresses/0546200000061871/"}}},{"purpose":"industriefunctie","postcode":"2311AA","surface":125,"municipality":{"id":"0546","label":"Leiden"},"city":{"id":"2088","label":"Leiden"},"letter":"D","geo":{"center":{"rd":{"type":"Point","coordinates":[92856.096,463882.758],"crs":{"type":"name","properties":{"name":"urn:ogc:def:crs:EPSG::28992"}}},"wgs84":{"type":"Point","coordinates":[4.479014,52.1596118],"crs":{"type":"name","properties":{"name":"urn:ogc:def:crs:OGC:1.3:CRS84"}}}}},"nen5825":{"postcode":"2311 AA","street":"HAAGWEG"},"addition":"1","number":4,"year":1883,"province":{"id":"28","label":"Zuid-Holland"},"id":"0546200000061853","type":"Verblijfsobject","street":"Haagweg","_links":{"self":{"href":"https://api.postcodeapi.nu/v2/addresses/0546200000061853/"}}},{"purpose":"industriefunctie","postcode":"2311AA","surface":42,"municipality":{"id":"0546","label":"Leiden"},"city":{"id":"2088","label":"Leiden"},"letter":"G","geo":{"center":{"rd":{"type":"Point","coordinates":[92848.732,463875.195],"crs":{"type":"name","properties":{"name":"urn:ogc:def:crs:EPSG::28992"}}},"wgs84":{"type":"Point","coordinates":[4.4789078,52.159543],"crs":{"type":"name","properties":{"name":"urn:ogc:def:crs:OGC:1.3:CRS84"}}}}},"nen5825":{"postcode":"2311 AA","street":"HAAGWEG"},"addition":"8","number":4,"year":1883,"province":{"id":"28","label":"Zuid-Holland"},"id":"0546200000061899","type":"Verblijfsobject","street":"Haagweg","_links":{"self":{"href":"https://api.postcodeapi.nu/v2/addresses/0546200000061899/"}}},{"purpose":"industriefunctie","postcode":"2311AA","surface":37,"municipality":{"id":"0546","label":"Leiden"},"city":{"id":"2088","label":"Leiden"},"letter":"D","geo":{"center":{"rd":{"type":"Point","coordinates":[92849.82,463881.987],"crs":{"type":"name","properties":{"name":"urn:ogc:def:crs:EPSG::28992"}}},"wgs84":{"type":"Point","coordinates":[4.4789225,52.1596042],"crs":{"type":"name","properties":{"name":"urn:ogc:def:crs:OGC:1.3:CRS84"}}}}},"nen5825":{"postcode":"2311 AA","street":"HAAGWEG"},"addition":"6","number":4,"year":1883,"province":{"id":"28","label":"Zuid-Holland"},"id":"0546200000061848","type":"Verblijfsobject","street":"Haagweg","_links":{"self":{"href":"https://api.postcodeapi.nu/v2/addresses/0546200000061848/"}}},{"purpose":"industriefunctie","postcode":"2311AA","surface":28,"municipality":{"id":"0546","label":"Leiden"},"city":{"id":"2088","label":"Leiden"},"letter":"H","geo":{"center":{"rd":{"type":"Point","coordinates":[92849.639,463873.44],"crs":{"type":"name","properties":{"name":"urn:ogc:def:crs:EPSG::28992"}}},"wgs84":{"type":"Point","coordinates":[4.4789214,52.1595274],"crs":{"type":"name","properties":{"name":"urn:ogc:def:crs:OGC:1.3:CRS84"}}}}},"nen5825":{"postcode":"2311 AA","street":"HAAGWEG"},"addition":"7","number":4,"year":1883,"province":{"id":"28","label":"Zuid-Holland"},"id":"0546200000061910","type":"Verblijfsobject","street":"Haagweg","_links":{"self":{"href":"https://api.postcodeapi.nu/v2/addresses/0546200000061910/"}}},{"purpose":"industriefunctie","postcode":"2311AA","surface":36,"municipality":{"id":"0546","label":"Leiden"},"city":{"id":"2088","label":"Leiden"},"letter":"G","geo":{"center":{"rd":{"type":"Point","coordinates":[92855.886,463876.371],"crs":{"type":"name","properties":{"name":"urn:ogc:def:crs:EPSG::28992"}}},"wgs84":{"type":"Point","coordinates":[4.4790121,52.1595544],"crs":{"type":"name","properties":{"name":"urn:ogc:def:crs:OGC:1.3:CRS84"}}}}},"nen5825":{"postcode":"2311 AA","street":"HAAGWEG"},"addition":"2","number":4,"year":1883,"province":{"id":"28","label":"Zuid-Holland"},"id":"0546200000061905","type":"Verblijfsobject","street":"Haagweg","_links":{"self":{"href":"https://api.postcodeapi.nu/v2/addresses/0546200000061905/"}}},{"purpose":"industriefunctie","postcode":"2311AA","surface":43,"municipality":{"id":"0546","label":"Leiden"},"city":{"id":"2088","label":"Leiden"},"letter":"A","geo":{"center":{"rd":{"type":"Point","coordinates":[92880.824,463891.828],"crs":{"type":"name","properties":{"name":"urn:ogc:def:crs:EPSG::28992"}}},"wgs84":{"type":"Point","coordinates":[4.4793737,52.1596961],"crs":{"type":"name","properties":{"name":"urn:ogc:def:crs:OGC:1.3:CRS84"}}}}},"nen5825":{"postcode":"2311 AA","street":"HAAGWEG"},"addition":"2","number":4,"year":1883,"province":{"id":"28","label":"Zuid-Holland"},"id":"0546200000061817","type":"Verblijfsobject","street":"Haagweg","_links":{"self":{"href":"https://api.postcodeapi.nu/v2/addresses/0546200000061817/"}}},{"purpose":"industriefunctie","postcode":"2311AA","surface":25,"municipality":{"id":"0546","label":"Leiden"},"city":{"id":"2088","label":"Leiden"},"letter":"E","geo":{"center":{"rd":{"type":"Point","coordinates":[92836.626,463877.097],"crs":{"type":"name","properties":{"name":"urn:ogc:def:crs:EPSG::28992"}}},"wgs84":{"type":"Point","coordinates":[4.4787306,52.1595588],"crs":{"type":"name","properties":{"name":"urn:ogc:def:crs:OGC:1.3:CRS84"}}}}},"nen5825":{"postcode":"2311 AA","street":"HAAGWEG"},"addition":"17","number":4,"year":1883,"province":{"id":"28","label":"Zuid-Holland"},"id":"0546200000061870","type":"Verblijfsobject","street":"Haagweg","_links":{"self":{"href":"https://api.postcodeapi.nu/v2/addresses/0546200000061870/"}}},{"purpose":"industriefunctie","postcode":"2311AA","surface":44,"municipality":{"id":"0546","label":"Leiden"},"city":{"id":"2088","label":"Leiden"},"letter":"G","geo":{"center":{"rd":{"type":"Point","coordinates":[92844.816,463874.259],"crs":{"type":"name","properties":{"name":"urn:ogc:def:crs:EPSG::28992"}}},"wgs84":{"type":"Point","coordinates":[4.4788507,52.1595342],"crs":{"type":"name","properties":{"name":"urn:ogc:def:crs:OGC:1.3:CRS84"}}}}},"nen5825":{"postcode":"2311 AA","street":"HAAGWEG"},"addition":"11","number":4,"year":1883,"province":{"id":"28","label":"Zuid-Holland"},"id":"0546200000061902","type":"Verblijfsobject","street":"Haagweg","_links":{"self":{"href":"https://api.postcodeapi.nu/v2/addresses/0546200000061902/"}}}]},"_links":{"self":{"href":"https://api.postcodeapi.nu/v2/addresses/?postcode=2311AA&number=4"},"next":{"href":"https://api.postcodeapi.nu/v2/addresses/?postcode=2311AA&number=4&from%5Bpostcode%5D=2311AA&from%5Bid%5D=0546200000061902&from%5Bnumber%5D=4"}}}