{"_embedded":{"addresses":[{"purpose":"woonfunctie","postcode":"2011XC","surface":105,"municipality":{"id":"0392","label":"Haarlem"},"city":{"id":"2907","label":"Haarlem"},"letter":"A","geo":{"center":{"rd":{"type":"Point","coordinates":[103431.205,488045.434],"crs":{"type":"name","properties":{"name":"urn:ogc:def:crs:EPSG::28992"}}},"wgs84":{"type":"Point","coordinates":[4.6298598,52.3778527],"crs":{"type":"name","properties":{"name":"urn:ogc:def:crs:OGC:1.3:CRS84"}}}}},"nen5825":{"postcode":"2011 XC","street":"DOELSTRAAT"},"addition":null,"number":20,"year":1910,"province":{"id":"27","label":"Noord-Holland"},"id":"0392200000012925","type":"Verblijfsobject","street":"Doelstraat","_links":{"self":{"href":"https:\/\/api.postcodeapi.nu\/v2\/addresses\/0392200000012925\/"}}},{"purpose":"woonfunctie","postcode":"2011XC","surface":137,"municipality":{"id":"0392","label":"Haarlem"},"city":{"id":"2907","label":"Haarlem"},"letter":null,"geo":{"center":{"rd":{"type":"Point","coordinates":[103425.241,488042.878],"crs":{"type":"name","properties":{"name":"urn:ogc:def:crs:EPSG::28992"}}},"wgs84":{"type":"Point","coordinates":[4.6297726,52.3778291],"crs":{"type":"name","properties":{"name":"urn:ogc:def:crs:OGC:1.3:CRS84"}}}}},"nen5825":{"postcode":"2011 XC","street":"DOELSTRAAT"},"addition":"RD","number":20,"year":1910,"province":{"id":"27","label":"Noord-Holland"},"id":"0392200000012923","type":"Verblijfsobject","street":"Doelstraat","_links":{"self":{"href":"https:\/\/api.postcodeapi.nu\/v2\/addresses\/0392200000012923\/"}}},{"purpose":"industriefunctie","postcode":"2011XC","surface":137,"municipality":{"id":"0392","label":"Haarlem"},"city":{"id":"2907","label":"Haarlem"},"letter":null,"geo":{"center":{"rd":{"type":"Point","coordinates":[103426.702,488047.259],"crs":{"type":"name","properties":{"name":"urn:ogc:def:crs:EPSG::28992"}}},"wgs84":{"type":"Point","coordinates":[4.6297934,52.3778686],"crs":{"type":"name","properties":{"name":"urn:ogc:def:crs:OGC:1.3:CRS84"}}}}},"nen5825":{"postcode":"2011 XC","street":"DOELSTRAAT"},"addition":"ZW","number":20,"year":1910,"province":{"id":"27","label":"Noord-Holland"},"id":"0392200000012924","type":"Verblijfsobject","street":"Doelstraat","_links":{"self":{"href":"https:\/\/api.postcodeapi.nu\/v2\/addresses\/0392200000012924\/"}}}]},"_links":{"self":{"href":"https:\/\/api.postcodeapi.nu\/v2\/addresses\/?postcode=2011XC&number=20"}}}